{
  "drivers" : {
    "five" : {
      "lat" : -0.236028,
      "long" : -0.923332,
      "name" : "Raja",
      "phone" : "+919876543210"
    },
    "four" : {
      "lat" : -0.458621,
      "long" : -0.717298,
      "name" : "Kumar",
      "phone" : "+919876543210"
    },
    "one" : {
      "lat" : -0.904175,
      "long" : -0.436629,
      "name" : "Rajesh",
      "phone" : "+919876543210"
    },
    "six" : {
      "lat" : -0.937001,
      "long" : -0.662892,
      "name" : "Sundar",
      "phone" : "+919876543210"
    },
    "three" : {
      "lat" : -0.008909,
      "long" : -0.066813,
      "name" : "Ravi",
      "phone" : "+919876543210"
    },
    "two" : {
      "lat" : -0.470378,
      "long" : -0.439306,
      "name" : "Mukesh",
      "phone" : "+919876543210"
    }
  }
}
